[
  {
    "Title": "eBIKE Badín",
    "Address": "Krčméryho 731/37, 976 32 Badín, Slovakia",
    "Mesto": "Badín",
    "Kraj": "BB",
    "Website": "https://ebikebadin.sk/",
    "Phone": "+421 905 761 675",
    "Detail_URL": "https://www.google.com/maps/place/eBIKE+Badín/data=!4m5!3m4!1s0x47153f40bb70abeb:0xf7e253fdf2482650!8m2!3d48.6662229!4d19.1177405?authuser=0&hl=en&gl=us&rclk=1",
    "Latitude": 48.6662229,
    "Longitude": 19.1177405
  },
  {
    "Title": "ebike BB - požičovňa elektrobicyklov v Banskej Bystrici",
    "Address": "Sásovská cesta 70, 974 11 Banská Bystrica, Slovakia",
    "Mesto": "Banská Bystrica",
    "Kraj": "BB",
    "Website": "http://www.elektrobicykelbb.sk/",
    "Phone": "+421 905 699 131",
    "Detail_URL": "https://www.google.com/maps/place/ebike+BB+-+požičovňa+elektrobicyklov+v+Banskej+Bystrici/data=!4m5!3m4!1s0x471517013684540f:0x959d2a10158b4745!8m2!3d48.7581945!4d19.1572716?authuser=0&hl=en&gl=us&rclk=1",
    "Latitude": 48.7581945,
    "Longitude": 19.1572716
  },
  {
    "Title": "RIDE.sk / Obchod / E-shop / Požičovňa elektrobicyklov",
    "Address": "Zvolenská cesta 8/D, 974 05 Banská Bystrica, Slovakia",
    "Mesto": "Banská Bystrica",
    "Kraj": "BB",
    "Website": "http://www.ride.sk/",
    "Phone": "+421 48/222 00 00",
    "Detail_URL": "https://www.google.com/maps/place/RIDE.sk+/+Obchod+/+E-shop+/+Požičovňa+elektrobicyklov/data=!4m5!3m4!1s0x471515f0776b3ef7:0xee6bb3ce6151d82a!8m2!3d48.7122148!4d19.1359838?authuser=0&hl=en&gl=us&rclk=1",
    "Latitude": 48.7122148,
    "Longitude": 19.1359838
  },
  {
    "Title": "Be - Cycles",
    "Address": "Lazovná 253/253/22, 974 01 Banská Bystrica, Slovakia",
    "Mesto": "Banská Bystrica",
    "Kraj": "BB",
    "Website": "http://www.be-cycles.sk/",
    "Phone": "+421 949 166 133",
    "Detail_URL": "https://www.google.com/maps/place/Be+-+Cycles/data=!4m5!3m4!1s0x47153df78d3be7bb:0x5f0ec7a3e264bcb6!8m2!3d48.737728!4d19.1438699?authuser=0&hl=en&gl=us&rclk=1",
    "Latitude": 48.737728,
    "Longitude": 19.1438699
  },
  {
    "Title": "RIDE.sk / Obchod / E-shop / Požičovňa elektrobicyklov",
    "Address": "Zvolenská cesta 8/D, 974 05 Banská Bystrica",
    "Mesto": "Banská Bystrica",
    "Kraj": "BB",
    "Website": "http://ride.sk",
    "Phone": "",
    "Detail_URL": "https://www.google.com/maps/place/RIDE.sk+/+Obchod+/+E-shop+/+Po%C5%BEi%C4%8Dov%C5%88a+elektrobicyklov/@48.7122183,19.1337951,17z/data=!3m1!4b1!4m5!3m4!1s0x471515f0776b3ef7:0xee6bb3ce6151d82a!8m2!3d48.7122148!4d19.1359838",
    "Latitude": 48.7122183,
    "Longitude": 19.1337951
  },
  {
    "Title": "Bs-rent s.r.o",
    "Address": "Tabaková, 969 01 Banská Štiavnica, Slovakia",
    "Mesto": "Banská Štiavnica",
    "Kraj": "BB",
    "Website": "https://ebajkrentsk.webnode.sk/",
    "Phone": "+421 948 908 737",
    "Detail_URL": "https://www.google.com/maps/place/Bs-rent+s.r.o/data=!4m5!3m4!1s0x4715334bf3e5b413:0xaec6414be1569fe9!8m2!3d48.4542357!4d18.9027547?authuser=0&hl=en&gl=us&rclk=1",
    "Latitude": 48.4542357,
    "Longitude": 18.9027547
  },
  {
    "Title": "Požičovňa bicyklov a kolieskových korčulí",
    "Address": "Blatnica 305, 038 15 Blatnica, Slovakia",
    "Mesto": "Blatnica",
    "Kraj": "ZA",
    "Website": "http://drevenicapodtlstou.sk/pozicovna-bicyklov/",
    "Phone": "+421 917 248 322",
    "Detail_URL": "https://www.google.com/maps/place/Požičovňa+bicyklov+a+kolieskových+korčulí/data=!4m5!3m4!1s0x4714e2a9115371e5:0x7a836155ae74b06d!8m2!3d48.9367445!4d18.9247098?authuser=0&hl=en&gl=us&rclk=1",
    "Latitude": 48.9367445,
    "Longitude": 18.9247098
  },
  {
    "Title": "Požičovňa horských elektrobicyklov",
    "Address": "Blatnica 497, 038 15 Blatnica, Slovakia",
    "Mesto": "Blatnica",
    "Kraj": "ZA",
    "Website": "https://pozicovna-horskych-elektrobicyklov-bicycle-rental-service.business.site/",
    "Phone": "+421 903 286 757",
    "Detail_URL": "https://www.google.com/maps/place/Požičovňa+horských+elektrobicyklov/data=!4m5!3m4!1s0x47151d0f03c14ebf:0xe3873b92b1804741!8m2!3d48.9326143!4d18.931998?authuser=0&hl=en&gl=us&rclk=1",
    "Latitude": 48.9326143,
    "Longitude": 18.931998
  },
  {
    "Title": "Požičovňa elektro kolobeziek a bicyklov - Gaderwheel",
    "Address": "Blatnica 243, 038 15 Blatnica, Slovakia",
    "Mesto": "Blatnica",
    "Kraj": "ZA",
    "Website": "http://www.gaderwheel.sk/",
    "Phone": "+421 919 313 620",
    "Detail_URL": "https://www.google.com/maps/place/Požičovňa+elektro+kolobeziek+a+bicyklov+-+Gaderwheel/data=!4m5!3m4!1s0x47151d59e63beb77:0x3892f56a05c87340!8m2!3d48.9311536!4d18.9319518?authuser=0&hl=en&gl=us&rclk=1",
    "Latitude": 48.9311536,
    "Longitude": 18.9319518
  },
  {
    "Title": "Marina Liptov",
    "Address": "Bobrovník 140, 032 23 Bobrovník, Slovakia",
    "Mesto": "Bobrovník",
    "Kraj": "ZA",
    "Website": "https://www.marinaliptov.sk/",
    "Phone": "+421 902 605 605",
    "Detail_URL": "https://www.google.com/maps/place/Marina+Liptov/data=!4m5!3m4!1s0x4715a3c84ce0ce45:0xe80cef12e0e366b8!8m2!3d49.1185999!4d19.4791699?authuser=0&hl=en&gl=us&rclk=1",
    "Latitude": 49.1185999,
    "Longitude": 19.4791699
  },
  {
    "Title": "BIKERENTAL",
    "Address": "Michalská 372/9, 811 01 Bratislava, Slovakia",
    "Mesto": "Bratislava",
    "Kraj": "BA",
    "Website": "https://bikerental-bicycle-rental-service.business.site/",
    "Phone": "+421 950 737 777",
    "Detail_URL": "https://www.google.com/maps/place/BIKERENTAL/data=!4m5!3m4!1s0x476c89191761ee97:0xb8d2ef81206f0fef!8m2!3d48.1446424!4d17.1063592?authuser=0&hl=en&gl=us&rclk=1",
    "Latitude": 48.1446424,
    "Longitude": 17.1063592
  },
  {
    "Title": "ebajk - Svet elektrobicyklov",
    "Address": "Tomášikova 50/AB, 831 04 Bratislava, Slovakia",
    "Mesto": "Bratislava",
    "Kraj": "BA",
    "Website": "http://www.ebajk.sk/",
    "Phone": "+421 901 771 107",
    "Detail_URL": "https://www.google.com/maps/place/ebajk+-+Svet+elektrobicyklov/data=!4m5!3m4!1s0x476c8ebb2221bbed:0x7e5575ec44fafb73!8m2!3d48.1683006!4d17.1493468?authuser=0&hl=en&gl=us&rclk=1",
    "Latitude": 48.1683006,
    "Longitude": 17.1493468
  },
  {
    "Title": "pozicovna ebike harmonia",
    "Address": "Súmračná, 821 02 Bratislava, Slovakia",
    "Mesto": "Bratislava",
    "Kraj": "BA",
    "Website": "http://www.ebike-rent.sk/kontakt",
    "Phone": "+421 951 298 463",
    "Detail_URL": "https://www.google.com/maps/place/pozicovna+ebike+harmonia/data=!4m5!3m4!1s0x476c8f2eedb7855f:0x8ec64fd9fb361753!8m2!3d48.1587182!4d17.1693812?authuser=0&hl=en&gl=us&rclk=1",
    "Latitude": 48.1587182,
    "Longitude": 17.1693812
  },
  {
    "Title": "Kaktus Bike",
    "Address": "Karloveská 6 B, 841 04 Bratislava, Slovakia",
    "Mesto": "Bratislava",
    "Kraj": "BA",
    "Website": "https://www.kaktusbike.sk/",
    "Phone": "+421 948 311 199",
    "Detail_URL": "https://www.google.com/maps/place/Kaktus+Bike/data=!4m5!3m4!1s0x476c8b9a40183bc5:0xdc2f4bdaac38c53c!8m2!3d48.1530537!4d17.0612507?authuser=0&hl=en&gl=us&rclk=1",
    "Latitude": 48.1530537,
    "Longitude": 17.0612507
  },
  {
    "Title": "Horehronie E-bike Rental",
    "Address": "Nám. gen. M. R. Štefánika 3, 977 01 Brezno, Slovakia",
    "Mesto": "Brezno",
    "Kraj": "BB",
    "Website": "https://cyklo.horehronie.sk/",
    "Phone": "+421 911 633 119",
    "Detail_URL": "https://www.google.com/maps/place/Horehronie+E-bike+Rental/data=!4m5!3m4!1s0x471564d871fce5a5:0x95020e2da89856f2!8m2!3d48.8069015!4d19.6424873?authuser=0&hl=en&gl=us&rclk=1",
    "Latitude": 48.8069015,
    "Longitude": 19.6424873
  },
  {
    "Title": "Talebike",
    "Address": "Bystrá 94, 977 01 Bystrá",
    "Mesto": "Bystrá",
    "Kraj": "BB",
    "Website": "http://talebike.sk",
    "Phone": "",
    "Detail_URL": "https://www.google.com/maps/place/T%C3%A1le+ebike/@48.8451119,19.603594,17z/data=!3m1!4b1!4m5!3m4!1s0x471571d49eb8c205:0x555ff595259eae0!8m2!3d48.8451084!4d19.6057828",
    "Latitude": 48.8451119,
    "Longitude": 19.603594
  },
  {
    "Title": "KostraBike",
    "Address": "Horná 119, 022 01 Čadca, Slovakia",
    "Mesto": "Čadca",
    "Kraj": "ZA",
    "Website": "http://www.kostrabike.sk/",
    "Phone": "+421 948 046 988",
    "Detail_URL": "https://www.google.com/maps/place/KostraBike/data=!4m5!3m4!1s0x471440274e785fb1:0xc7bbff7176ed71fc!8m2!3d49.4359285!4d18.7880337?authuser=0&hl=en&gl=us&rclk=1",
    "Latitude": 49.4359285,
    "Longitude": 18.7880337
  },
  {
    "Title": "SKI Ninaj Demanovska dolina",
    "Address": "031 01, Demänovská Dolina, Slovakia",
    "Mesto": "Demänovská Dolina",
    "Kraj": "ZA",
    "Website": "http://www.skiservis.sk/kontakt.php",
    "Phone": "+421 905 357 133",
    "Detail_URL": "https://www.google.com/maps/place/SKI+Ninaj+Demanovska+dolina/data=!4m5!3m4!1s0x471576778736483f:0x4c44f9a549a3862f!8m2!3d48.9672703!4d19.5736765?authuser=0&hl=en&gl=us&rclk=1",
    "Latitude": 48.9672703,
    "Longitude": 19.5736765
  },
  {
    "Title": "eBike Podpoľanie",
    "Address": "Nová Ves 15, 962 12 Detva, Slovakia",
    "Mesto": "Detva",
    "Kraj": "BB",
    "Website": "http://www.ebikepodpolanie.sk/",
    "Phone": "+421 949 568 505",
    "Detail_URL": "https://www.google.com/maps/place/eBike+Podpoľanie/data=!4m5!3m4!1s0x47155bfb2148066b:0xe1309a2c4485b8f3!8m2!3d48.5657642!4d19.4186443?authuser=0&hl=en&gl=us&rclk=1",
    "Latitude": 48.5657642,
    "Longitude": 19.4186443
  },
  {
    "Title": "PISOSPORT - SKIALPINISTA.SK",
    "Address": "Samuela Nováka 2194, 026 01 Dolný Kubín, Slovakia",
    "Mesto": "Dolný Kubín",
    "Kraj": "ZA",
    "Website": "https://www.skialpinista.sk/",
    "Phone": "+421 917 949 909",
    "Detail_URL": "https://www.google.com/maps/place/PISOSPORT+-+SKIALPINISTA.SK/data=!4m5!3m4!1s0x4715ae2eef32981f:0xb18bcee75fcfb9e8!8m2!3d49.2086822!4d19.2962144?authuser=0&hl=en&gl=us&rclk=1",
    "Latitude": 49.2086822,
    "Longitude": 19.2962144
  },
  {
    "Title": "HOTEL Zelena Laguna",
    "Address": "Vranovská cesta č.900/2, 094 02 Domaša rekreačná oblasť Dobrá",
    "Mesto": "Domaša - Dobrá",
    "Kraj": "PO",
    "Website": "http://www.zelenalaguna.sk/",
    "Phone": "0915930345",
    "Detail_URL": "https://www.google.com/maps/place/HOTEL+ZELEN%C3%81+LAG%C3%9ANA/@49.0058196,21.6888334,17z/data=!3m1!4b1!4m8!3m7!1s0x473ec8919c699bb7:0xb3546a9e6ec8864b!5m2!4m1!1i2!8m2!3d49.0058162!4d21.6933181",
    "Latitude": 49.0058196,
    "Longitude": 21.6888334
  },
  {
    "Title": "Penzion Damisport",
    "Address": "976 39, Donovaly, Slovakia",
    "Mesto": "Donovaly",
    "Kraj": "BB",
    "Website": "http://www.damisport.sk/",
    "Phone": "+421 903 402 311",
    "Detail_URL": "https://www.google.com/maps/place/Penzion+Damisport/data=!4m5!3m4!1s0x471511ef0519ba7d:0x8a23d921161012c5!8m2!3d48.8765215!4d19.2250518?authuser=0&hl=en&gl=us&rclk=1",
    "Latitude": 48.8765215,
    "Longitude": 19.2250518
  },
  {
    "Title": "SKI LYSÁ",
    "Address": "Drienica 508, 080 01 Drienica",
    "Mesto": "Drienica",
    "Kraj": "PO",
    "Website": "http://skilysa.sk",
    "Phone": "0905150697",
    "Detail_URL": "https://www.google.com/maps/place/SKI+LYS%C3%81/@49.1639163,21.1368267,17z/data=!3m1!4b1!4m5!3m4!1s0x473e89e0c28b36d5:0xb2f411f780af40c0!8m2!3d49.1639128!4d21.1390155",
    "Latitude": 49.1639163,
    "Longitude": 21.1368267
  },
  {
    "Title": "Požičajsi.bike - Elektrobicykle Drnava",
    "Address": "Drnava 31, 049 42 Drnava, Slovakia",
    "Mesto": "Drnava",
    "Kraj": "KE",
    "Website": "http://www.pozicajsi.bike/",
    "Phone": "+421 907 794 813",
    "Detail_URL": "https://www.google.com/maps/place/Požičajsi.bike+-+Elektrobicykle+Drnava/data=!4m5!3m4!1s0x473fa91850f55cbb:0xa362b7045c724da3!8m2!3d48.6397134!4d20.6476371?authuser=0&hl=en&gl=us&rclk=1",
    "Latitude": 48.6397134,
    "Longitude": 20.6476371
  },
  {
    "Title": "Požičajsi.bike - Elektrobicykle Drnava",
    "Address": "Drnava 31, 049 42 Drnava",
    "Mesto": "Drnava",
    "Kraj": "KE",
    "Website": "http://pozicajsi.bike",
    "Phone": "0907 794 813",
    "Detail_URL": "https://www.google.com/maps/place/Po%C5%BEi%C4%8Dajsi.bike+-+Elektrobicykle+Drnava/@48.6397169,20.6454484,17z/data=!3m1!4b1!4m5!3m4!1s0x473fa91850f55cbb:0xa362b7045c724da3!8m2!3d48.6397134!4d20.6476371",
    "Latitude": 48.6397169,
    "Longitude": 20.6454484
  },
  {
    "Title": "NajLyže.sk - Dúbravka",
    "Address": "Bagarova, 841 01 Dúbravka, Slovakia",
    "Mesto": "Bratislava - Dúbravka",
    "Kraj": "BA",
    "Website": "https://www.najlyze-bratislava.sk/kontakt-najlyze-sk-bratislava",
    "Phone": "+421 919 066 705",
    "Detail_URL": "https://www.google.com/maps/place/NajLyže.sk+-+Dúbravka/data=!4m5!3m4!1s0x476c8c8fc215a813:0xbd97236bb5aa2b9a!8m2!3d48.1827491!4d17.0455098?authuser=0&hl=en&gl=us&rclk=1",
    "Latitude": 48.1827491,
    "Longitude": 17.0455098
  },
  {
    "Title": "MÝTO SKI & BIKE PARK",
    "Address": "976 44, Mýto pod Ďumbierom, Slovakia",
    "Mesto": "Mýto pod Ďumbierom",
    "Kraj": "BB",
    "Website": "https://www.kopeczabavy.sk/",
    "Phone": "+421 911 379 378",
    "Detail_URL": "https://www.google.com/maps/place/MÝTO+SKI+&+BIKE+PARK/data=!4m5!3m4!1s0x47157a8e29024c5b:0xf3721e8179d986d0!8m2!3d48.8462262!4d19.6207497?authuser=0&hl=en&gl=us&rclk=1",
    "Latitude": 48.8462262,
    "Longitude": 19.6207497
  },
  {
    "Title": "OKOLO",
    "Address": "Hlavná 121, 059 42 Gerlachov, Slovakia",
    "Mesto": "Gerlachov",
    "Kraj": "PO",
    "Website": "http://www.pozicovnaokolo.sk/",
    "Phone": "+421 948 106 999",
    "Detail_URL": "https://www.google.com/maps/place/OKOLO/data=!4m5!3m4!1s0x473e25eb260ea305:0x6e30845c0889bb61!8m2!3d49.0971383!4d20.2079092?authuser=0&hl=en&gl=us&rclk=1",
    "Latitude": 49.0971383,
    "Longitude": 20.2079092
  },
  {
    "Title": "tomcat.bike",
    "Address": "Partizánska 1650/12, 972 51 Handlová, Slovakia",
    "Mesto": "Handlová",
    "Kraj": "TN",
    "Website": "http://tomcat.bike/",
    "Phone": "+421 949 181 866",
    "Detail_URL": "https://www.google.com/maps/place/tomcat.bike/data=!4m5!3m4!1s0x4714df4f92be5e6b:0x39dfd60a56158c8f!8m2!3d48.7241112!4d18.7565417?authuser=0&hl=en&gl=us&rclk=1",
    "Latitude": 48.7241112,
    "Longitude": 18.7565417
  },
  {
    "Title": "TIC Hervartov",
    "Address": "Hervartov 158, 086 22 Hervartov, Slovakia",
    "Mesto": "Hervartov",
    "Kraj": "PO",
    "Website": "https://tic-hervartov.sk/",
    "Phone": "+421 918 678 260",
    "Detail_URL": "https://www.google.com/maps/place/TIC+Hervartov/data=!4m5!3m4!1s0x473e879fdeddbeed:0xa5af3ded53a1967a!8m2!3d49.2466333!4d21.2045644?authuser=0&hl=en&gl=us&rclk=1",
    "Latitude": 49.2466333,
    "Longitude": 21.2045644
  },
  {
    "Title": "Salamandra Resort",
    "Address": "Horný Hodrušský tajch 796, 966 63 Hodruša - Hámre",
    "Mesto": "Hodruša - Hámre",
    "Kraj": "BB",
    "Website": "http://salamandra.sk",
    "Phone": "",
    "Detail_URL": "https://www.google.com/maps/place/Ly%C5%BEiarske+stredisko+Salamandra/@48.457634,18.8516214,17z/data=!3m1!4b1!4m5!3m4!1s0x471532acc297f04f:0xa8cc3369476786a9!8m2!3d48.4576305!4d18.8538102",
    "Latitude": 48.457634,
    "Longitude": 18.8516214
  },
  {
    "Title": "Hotel Polianka",
    "Address": "Krpáčovo, 976 98 Horná Lehota-Lopej",
    "Mesto": "Horná Lehota-Lopej",
    "Kraj": "BB",
    "Website": "http://www.polianka.sk/",
    "Phone": "",
    "Detail_URL": "https://www.google.com/maps/place/Hotel+Polianka/@48.8757135,19.5546254,17z/data=!3m1!4b1!4m8!3m7!1s0x47157100ad04da79:0xdbbcccffa142bcca!5m2!4m1!1i2!8m2!3d48.87571!4d19.5568141",
    "Latitude": 48.8757135,
    "Longitude": 19.5546254
  },
  {
    "Title": "Malý Majer Podlesok",
    "Address": "Malý Majer Podlesok , č. 1015/69, 053 15 Hrabušice",
    "Mesto": "Hrabušice",
    "Kraj": "KE",
    "Website": "http://www.malymajerpodlesok.sk",
    "Phone": "",
    "Detail_URL": "https://www.google.com/maps/place/Mal%C3%BD+Majer+Podlesok/@48.9678537,20.384218,17z/data=!3m1!4b1!4m5!3m4!1s0x473e3657ffc2fbe1:0xd03dc54df937fb7d!8m2!3d48.967796!4d20.3864237",
    "Latitude": 48.9678537,
    "Longitude": 20.384218
  },
  {
    "Title": "Reštaurácia PONIKLEC",
    "Address": "Obchodná 83, 053 15 Hrabušice-Podlesok, Slovakia",
    "Mesto": "Hrabušice-Podlesok",
    "Kraj": "KE",
    "Website": "http://poniklec.sk/",
    "Phone": "+421 907 543 803",
    "Detail_URL": "https://www.google.com/maps/place/Reštaurácia+PONIKLEC/data=!4m5!3m4!1s0x473e36588efa6ac7:0x155083571ffb7302!8m2!3d48.9650446!4d20.3858057?authuser=0&hl=en&gl=us&rclk=1",
    "Latitude": 48.9650446,
    "Longitude": 20.3858057
  },
  {
    "Title": "ZAŽI HORY",
    "Address": "Jasenica 33, 018 17 Jasenica, Slovakia",
    "Mesto": "Jasenica",
    "Kraj": "TN",
    "Website": "https://www.zazihory.sk/",
    "Phone": "+421 907 090 700",
    "Detail_URL": "https://www.google.com/maps/place/ZAŽI+HORY/data=!4m5!3m4!1s0x4714897d629d7cb7:0x8fccb3e95c9115fc!8m2!3d49.1789873!4d18.45002?authuser=0&hl=en&gl=us&rclk=1",
    "Latitude": 49.1789873,
    "Longitude": 18.45002
  },
  {
    "Title": "Bike rental Jasná",
    "Address": "Biela Púť, Jasná",
    "Mesto": "Jasná",
    "Kraj": "ZA",
    "Website": "http://jasna.sk",
    "Phone": "+421 911 389 476",
    "Detail_URL": "https://www.google.com/maps/place/Shop+and+Rental+Biela+P%C3%BA%C5%A5/@48.9712145,19.5818186,17z/data=!4m12!1m6!3m5!1s0x4715766b42d86dd9:0x5804187d1f5c16a7!2zSmFzbsOh!8m2!3d48.9712242!4d19.5812445!3m4!1s0x47157785d26610c7:0x2eb42f18974c0c6b!8m2!3d48.9706619!4d19.5844114",
    "Latitude": 48.9712145,
    "Longitude": 19.5818186
  },
  {
    "Title": "Bikepark Kálnica",
    "Address": "428, 916 37 Kálnica, Slovakia",
    "Mesto": "Kálnica",
    "Kraj": "TN",
    "Website": "http://www.bikeparkkalnica.sk/",
    "Phone": "+421 903 510 477",
    "Detail_URL": "https://www.google.com/maps/place/Bikepark+Kálnica/data=!4m5!3m4!1s0x4714a8b9aa94223f:0xd4e9727ab676a70f!8m2!3d48.7552579!4d17.9376778?authuser=0&hl=en&gl=us&rclk=1",
    "Latitude": 48.7552579,
    "Longitude": 17.9376778
  },
  {
    "Title": "www.dragbicykle.sk",
    "Address": "Adámiho 24, 841 05 Karlova Ves",
    "Mesto": "Bratislava - Karlova Ves",
    "Kraj": "BA",
    "Website": "http://www.dragbicykle.sk",
    "Phone": "0905 229 997",
    "Detail_URL": "https://www.google.com/maps/place/www.dragbicykle.sk/@48.1521729,17.0531758,17z/data=!3m1!4b1!4m5!3m4!1s0x476c8b3b44ac8a69:0x5186122142e58bef!8m2!3d48.1521693!4d17.0553646",
    "Latitude": 48.1521729,
    "Longitude": 17.0531758
  },
  {
    "Title": "Požičovňa bicyklov EBIKE-TATRY.SK",
    "Address": "Štúrova, 060 01 Kežmarok, Slovakia",
    "Mesto": "Kežmarok",
    "Kraj": "PO",
    "Website": "https://www.ebike-tatry.sk/",
    "Phone": "+421 908 477 701",
    "Detail_URL": "https://www.google.com/maps/place/Požičovňa+bicyklov+EBIKE-TATRY.SK/data=!4m5!3m4!1s0x473e3df4bd297b2f:0xc6082ad72f93cea7!8m2!3d49.1342903!4d20.4392851?authuser=0&hl=en&gl=us&rclk=1",
    "Latitude": 49.1342903,
    "Longitude": 20.4392851
  },
  {
    "Title": "Rentbike",
    "Address": "Michalská 060 01, 060 01 Kežmarok, Slovakia",
    "Mesto": "Kežmarok",
    "Kraj": "PO",
    "Website": "http://rentbike.sk/pozicovna-bicyklov-v-tatrach",
    "Phone": "+421 907 152 223",
    "Detail_URL": "https://www.google.com/maps/place/Rentbike/data=!4m5!3m4!1s0x473e3dcbc43a5a67:0x8a6d7959eb45e865!8m2!3d49.1447974!4d20.4300118?authuser=0&hl=en&gl=us&rclk=1",
    "Latitude": 49.1447974,
    "Longitude": 20.4300118
  },
  {
    "Title": "Požičovňa elektrických bicyklov / E bike rent",
    "Address": "Severná 400, 038 43 Kláštor pod Znievom, Slovakia",
    "Mesto": "Kláštor pod Znievom",
    "Kraj": "ZA",
    "Website": "http://www.ebajky.eu/",
    "Phone": "+421 902 363 304",
    "Detail_URL": "https://www.google.com/maps/place/Požičovňa+elektrických+bicyklov+/+E+bike+rent/data=!4m5!3m4!1s0x4714fb2c4478fc85:0x80bc8f82cdc52400!8m2!3d48.9739584!4d18.8117879?authuser=0&hl=en&gl=us&rclk=1",
    "Latitude": 48.9739584,
    "Longitude": 18.8117879
  },
  {
    "Title": "ebajk Košice",
    "Address": "Business Centre Košice, Cassovar, Žriedlová 7-9, 040 01 Košice, Slovakia",
    "Mesto": "Košice",
    "Kraj": "KE",
    "Website": "https://www.ebajk.sk/",
    "Phone": "+421 948 876 510",
    "Detail_URL": "https://www.google.com/maps/place/ebajk+Košice/data=!4m5!3m4!1s0x473ee0690c3eff03:0x16cafe5f43ff6bfb!8m2!3d48.718182!4d21.246305?authuser=0&hl=en&gl=us&rclk=1",
    "Latitude": 48.718182,
    "Longitude": 21.246305
  },
  {
    "Title": "Outdoor SPORTCOM",
    "Address": "04001, Hlavná 121/5, 040 01 Košice, Slovakia",
    "Mesto": "Košice",
    "Kraj": "KE",
    "Website": "http://www.sportcom.sk/",
    "Phone": "+421 55/625 14 08",
    "Detail_URL": "https://www.google.com/maps/place/Outdoor+SPORTCOM/data=!4m5!3m4!1s0x473ee070134d3a41:0x32e06bd4c654dd79!8m2!3d48.718215!4d21.2597101?authuser=0&hl=en&gl=us&rclk=1",
    "Latitude": 48.718215,
    "Longitude": 21.2597101
  },
  {
    "Title": "JUMP SPORT - Predajňa bicyklov Košice sídlisko MIER.",
    "Address": "Študentská 1, 040 01 Košice, Slovakia",
    "Mesto": "Košice",
    "Kraj": "KE",
    "Website": "http://www.jumpsport.sk/",
    "Phone": "+421 910 901 619",
    "Detail_URL": "https://www.google.com/maps/place/JUMP+SPORT+-+Predajňa+bicyklov+Košice+sídlisko+MIER./data=!4m5!3m4!1s0x473ee0f2ec9dcae7:0xd25af988ec4f931d!8m2!3d48.7394087!4d21.2559821?authuser=0&hl=en&gl=us&rclk=1",
    "Latitude": 48.7394087,
    "Longitude": 21.2559821
  },
  {
    "Title": "JUMPSPORT - SPECIALIZED, GIANT, BMC, LAPIERRE",
    "Address": "Študentská 274/1, 040 01 Košice, Slovakia",
    "Mesto": "Košice",
    "Kraj": "KE",
    "Website": "http://jumpsport.sk/",
    "Phone": "+421 55/698 62 31",
    "Detail_URL": "https://www.google.com/maps/place/JUMPSPORT+-+SPECIALIZED,+GIANT,+BMC,+LAPIERRE/data=!4m5!3m4!1s0x473ee0f2bd0d5b2b:0x1f9680b20899daf!8m2!3d48.7400116!4d21.2558283?authuser=0&hl=en&gl=us&rclk=1",
    "Latitude": 48.7400116,
    "Longitude": 21.2558283
  },
  {
    "Title": "Kellys Bike Centrum Košice",
    "Address": "Alvinczyho 29, 040 01 Košice, Slovakia",
    "Mesto": "Košice",
    "Kraj": "KE",
    "Website": "https://kosice.kellysbike.com/",
    "Phone": "+421 918 499 096",
    "Detail_URL": "https://www.google.com/maps/place/Kellys+Bike+Centrum+Košice/data=!4m5!3m4!1s0x473ee16b20133a2d:0x85ab8aa9be691953!8m2!3d48.7319134!4d21.2606192?authuser=0&hl=en&gl=us&rclk=1",
    "Latitude": 48.7319134,
    "Longitude": 21.2606192
  },
  {
    "Title": "EXIsport SKI & BIKE servis a požičovňa (PPG Group s.r.o.)",
    "Address": "Opatovská cesta 14, 040 01 Košice, Slovakia",
    "Mesto": "Košice",
    "Kraj": "KE",
    "Website": "http://www.exisport.com/",
    "Phone": "+421 908 754 754",
    "Detail_URL": "https://www.google.com/maps/place/EXIsport+SKI+&+BIKE+servis+a+požičovňa+(PPG+Group+s.r.o.)/data=!4m5!3m4!1s0x473edfefb42d2a15:0x6562b5ed283b967a!8m2!3d48.7046578!4d21.282292?authuser=0&hl=en&gl=us&rclk=1",
    "Latitude": 48.7046578,
    "Longitude": 21.282292
  },
  {
    "Title": "Kellys Bike Centrum Košice",
    "Address": "Alvinczyho 29, 040 01 Košice",
    "Mesto": "Košice",
    "Kraj": "KE",
    "Website": "https://kosice.kellysbike.com/",
    "Phone": "0918499096",
    "Detail_URL": "https://www.google.com/maps/place/Kellys+Bike+Centrum/@48.7319169,21.2584305,17z/data=!3m1!4b1!4m5!3m4!1s0x473ee16b20133a2d:0x85ab8aa9be691953!8m2!3d48.7319134!4d21.2606192",
    "Latitude": 48.7319169,
    "Longitude": 21.2584305
  },
  {
    "Title": "Energy Bikes",
    "Address": "Kostolište 359, 900 62 Kostolište, Slovakia",
    "Mesto": "Kostolište",
    "Kraj": "BA",
    "Website": "https://energybikes.sk/",
    "Phone": "+421 905 114 156",
    "Detail_URL": "https://www.google.com/maps/place/Energy+Bikes/data=!4m5!3m4!1s0x476cc3abf968d7ef:0x953c84fa626e50bd!8m2!3d48.4451654!4d16.9769158?authuser=0&hl=en&gl=us&rclk=1",
    "Latitude": 48.4451654,
    "Longitude": 16.9769158
  },
  {
    "Title": "Turiec Bike - Electrobikes rental",
    "Address": "Tiešňavská 52/3, 038 54 Krpeľany, Slovakia",
    "Mesto": "Krpeľany",
    "Kraj": "ZA",
    "Website": "https://turiecbike.sk/",
    "Phone": "+421 951 454 277",
    "Detail_URL": "https://www.google.com/maps/place/Turiec+Bike+-+Electrobikes+rental/data=!4m5!3m4!1s0x4715ab952a4e9ca9:0x12f30d7febfccb30!8m2!3d49.1270396!4d19.0918766?authuser=0&hl=en&gl=us&rclk=1",
    "Latitude": 49.1270396,
    "Longitude": 19.0918766
  },
  {
    "Title": "Život s bicyklom",
    "Address": "Československej armády 10, 934 01 Levice, Slovakia",
    "Mesto": "Levice",
    "Kraj": "NR",
    "Website": "https://pozicovnabicyklovlevice.zivotsbicyklom.sk/",
    "Phone": "+421 948 570 370",
    "Detail_URL": "https://www.google.com/maps/place/Život+s+bicyklom/data=!4m5!3m4!1s0x476adc5070da6093:0xabdd3a063e0c5109!8m2!3d48.2186355!4d18.608031?authuser=0&hl=en&gl=us&rclk=1",
    "Latitude": 48.2186355,
    "Longitude": 18.608031
  },
  {
    "Title": "Pension Gitka",
    "Address": "Hoskorná 69, 038 61 Lipovec",
    "Mesto": "Lipovec",
    "Kraj": "ZA",
    "Website": "http://www.gitka.sk",
    "Phone": "043/422 21 64",
    "Detail_URL": "https://www.google.com/maps/place/Penzi%C3%B3n+Gitka/@49.1279171,18.9218791,17z/data=!3m1!4b1!4m8!3m7!1s0x4714560d8ded5e47:0xe9e1e86492c25906!5m2!4m1!1i2!8m2!3d49.1278842!4d18.9240099",
    "Latitude": 49.1279171,
    "Longitude": 18.9218791
  },
  {
    "Title": "SKI RENT - SKISERVIS - Požičovňa Lyží - Niňaj - Tatra Line Demänová SKI RENT",
    "Address": "OMV, Demänovská cesta Pri čerpacej stanici, Demänová, 031 01 Liptovský Mikuláš, Slovakia",
    "Mesto": "Liptovský Mikuláš",
    "Kraj": "ZA",
    "Website": "http://www.skiservis.sk/",
    "Phone": "+421 905 357 133",
    "Detail_URL": "https://www.google.com/maps/place/SKI+RENT+-+SKISERVIS+-+Požičovňa+Lyží+-+Niňaj+-+Tatra+Line+Demänová+SKI+RENT/data=!4m5!3m4!1s0x47159f660426d0e3:0xb68269549c01343!8m2!3d49.0661124!4d19.587651?authuser=0&hl=en&gl=us&rclk=1",
    "Latitude": 49.0661124,
    "Longitude": 19.587651
  },
  {
    "Title": "Ski service - ski rental - Niňaj",
    "Address": "Jánošíkovo nábrežie 6, 032 03 Liptovský Mikuláš, Slovakia",
    "Mesto": "Liptovský Mikuláš",
    "Kraj": "ZA",
    "Website": "https://www.skiservis.sk/",
    "Phone": "+421 905 357 133",
    "Detail_URL": "https://www.google.com/maps/place/Ski+service+-+ski+rental+-+Niňaj/data=!4m5!3m4!1s0x47159c179a7414c5:0x5f4ccfd60edfa03e!8m2!3d49.0883419!4d19.6027747?authuser=0&hl=en&gl=us&rclk=1",
    "Latitude": 49.0883419,
    "Longitude": 19.6027747
  },
  {
    "Title": "Požičovňa LYŽÍ a BYCIKLOV - MACÍK STANISLAV",
    "Address": "Mládeže 290, 031 01 Liptovský Mikuláš-Demänová, Slovakia",
    "Mesto": "Liptovský Mikuláš-Demänová",
    "Kraj": "ZA",
    "Website": "http://pozicovnabicyklov.eu/",
    "Phone": "+421 905 423 606",
    "Detail_URL": "https://www.google.com/maps/place/Požičovňa+LYŽÍ+a+BYCIKLOV+-+MACÍK+STANISLAV/data=!4m5!3m4!1s0x47159edc335824f7:0x19906db7ea3185d9!8m2!3d49.0621558!4d19.5853509?authuser=0&hl=en&gl=us&rclk=1",
    "Latitude": 49.0621558,
    "Longitude": 19.5853509
  },
  {
    "Title": "Bicyklom Po Slovensku",
    "Address": "Okoličianska 61, 031 04 Liptovský Mikuláš-Okoličné, Slovakia",
    "Mesto": "Liptovský Mikuláš-Okoličné",
    "Kraj": "ZA",
    "Website": "http://www.bicyklomposlovensku.sk/",
    "Phone": "+421 918 383 204",
    "Detail_URL": "https://www.google.com/maps/place/Bicyklom+Po+Slovensku/data=!4m5!3m4!1s0x47159bfc3fcdc2a7:0x663d77499d6d1c09!8m2!3d49.0748763!4d19.6535805?authuser=0&hl=en&gl=us&rclk=1",
    "Latitude": 49.0748763,
    "Longitude": 19.6535805
  },
  {
    "Title": "Kolobežky Ľubochna - prenájom",
    "Address": "Hlavná 459/28, 034 91 Ľubochňa, Slovakia",
    "Mesto": "Ľubochňa",
    "Kraj": "ZA",
    "Website": "https://www.kolobezky-lubochna.sk/",
    "Phone": "+421 917 761 207",
    "Detail_URL": "https://www.google.com/maps/place/Kolobežky+Ľubochna+-+prenájom/data=!4m5!3m4!1s0x4715ab91d81e6acd:0xd1fc5ac86b898b26!8m2!3d49.1140049!4d19.1573961?authuser=0&hl=en&gl=us&rclk=1",
    "Latitude": 49.1140049,
    "Longitude": 19.1573961
  },
  {
    "Title": "SOFIA penzión a reštaurácia",
    "Address": "rekreačná oblasť, Vranovská cesta 982/25, 094 02 Malá Domaša-Dobrá",
    "Mesto": "Malá Domaša-Dobrá",
    "Kraj": "PO",
    "Website": "http://www.sofiadomasa.sk/",
    "Phone": "0915558776",
    "Detail_URL": "https://www.google.com/maps/place/SOFIA+penzi%C3%B3n+a+re%C5%A1taur%C3%A1cia/@49.016412,21.6760966,17z/data=!4m15!1m6!3m5!1s0x473eb9adedc67709:0x3e012084cb80c189!2zUmVrcmVhxI1uw6kgc3RyZWRpc2tvIERvbWHFoWEgLSBEb2Jyw6E!8m2!3d49.0173965!4d21.6771704!3m7!1s0x0:0xbf431078d94974a9!5m2!4m1!1i2!8m2!3d49.017152!4d21.6716931",
    "Latitude": 49.016412,
    "Longitude": 21.6760966
  },
  {
    "Title": "Cyklosport Kamil Makel",
    "Address": "Námestie osloboditeľov 83, 071 01 Michalovce, Slovakia",
    "Mesto": "Michalovce",
    "Kraj": "KE",
    "Website": "http://www.cyklosport.sk/",
    "Phone": "+421 56/643 10 64",
    "Detail_URL": "https://www.google.com/maps/place/Cyklosport+Kamil+Makel/data=!4m5!3m4!1s0x47393238a2eee58d:0x72dd2bb6546a9f54!8m2!3d48.7555831!4d21.9143966?authuser=0&hl=en&gl=us&rclk=1",
    "Latitude": 48.7555831,
    "Longitude": 21.9143966
  },
  {
    "Title": "TRAX Modra",
    "Address": "Vajanského 58, 902 01 Modra, Slovakia",
    "Mesto": "Modra",
    "Kraj": "BA",
    "Website": "http://www.trax-sport.sk/",
    "Phone": "+421 915 444 812",
    "Detail_URL": "https://www.google.com/maps/place/TRAX+Modra/data=!4m5!3m4!1s0x476c90ee68c997e7:0x3606c8c881d3478b!8m2!3d48.3322305!4d17.3083366?authuser=0&hl=en&gl=us&rclk=1",
    "Latitude": 48.3322305,
    "Longitude": 17.3083366
  },
  {
    "Title": "Sanislo Attila - Saat Sport",
    "Address": "Nová 9, 045 01 Moldava nad Bodvou, Slovakia",
    "Mesto": "Moldava nad Bodvou",
    "Kraj": "KE",
    "Website": "http://saatsport.sk/",
    "Phone": "+421 55/460 48 48",
    "Detail_URL": "https://www.google.com/maps/place/Sanislo+Attila+-+Saat+Sport/data=!4m5!3m4!1s0x473f1a55b31e8cf9:0x5776239e65756a44!8m2!3d48.6124429!4d20.9977434?authuser=0&hl=en&gl=us&rclk=1",
    "Latitude": 48.6124429,
    "Longitude": 20.9977434
  },
  {
    "Title": "Penzión u Sysľa - Reštaurácia",
    "Address": "Muráň 1, 049 01 Muráň, Slovakia",
    "Mesto": "Muráň",
    "Kraj": "BB",
    "Website": "http://www.usysla.sk/",
    "Phone": "+421 948 600 300",
    "Detail_URL": "https://www.google.com/maps/place/Penzión+u+Sysľa+-+Reštaurácia/data=!4m5!3m4!1s0x473fc54f2d755ceb:0xe4133282429b956b!8m2!3d48.7405703!4d20.0470236?authuser=0&hl=en&gl=us&rclk=1",
    "Latitude": 48.7405703,
    "Longitude": 20.0470236
  },
  {
    "Title": "Požičovňa bicyklov - Kam na bajk",
    "Address": "Československej armády 247/1, 907 01 Myjava, Slovakia",
    "Mesto": "Myjava",
    "Kraj": "TN",
    "Website": "https://www.kamnabajk.sk/",
    "Phone": "+421 908 522 666",
    "Detail_URL": "https://www.google.com/maps/place/Požičovňa+bicyklov+-+Kam+na+bajk/data=!4m5!3m4!1s0x47134fab153c04ef:0x1fcc99789f01781e!8m2!3d48.7521349!4d17.5599022?authuser=0&hl=en&gl=us&rclk=1",
    "Latitude": 48.7521349,
    "Longitude": 17.5599022
  },
  {
    "Title": "Villa Ďumbierka",
    "Address": "Mýto pod Ďumbierom 154, 976 44 Mýto pod Ďumbierom",
    "Mesto": "Mýto pod Ďumbierom",
    "Kraj": "BB",
    "Website": "http://www.villadumbierka.sk/",
    "Phone": "0911010484",
    "Detail_URL": "https://www.google.com/maps/place/Villa+%C4%8Eumbierka/@48.8588379,19.6316934,17z/data=!3m1!4b1!4m8!3m7!1s0x47157ba5656cc023:0x33023db31c00ad0c!5m2!4m1!1i2!8m2!3d48.8588345!4d19.6361781",
    "Latitude": 48.8588379,
    "Longitude": 19.6316934
  },
  {
    "Title": "Pozicbike",
    "Address": "Jurkovičova 411/27, 949 11 Nitra, Slovakia",
    "Mesto": "Nitra",
    "Kraj": "NR",
    "Website": "http://www.pozicbike.sk/",
    "Phone": "+421 904 214 796",
    "Detail_URL": "https://www.google.com/maps/place/Pozicbike/data=!4m5!3m4!1s0x476b3f3f8a28a05f:0xba0167e6c6ed1f80!8m2!3d48.3044494!4d18.0631485?authuser=0&hl=en&gl=us&rclk=1",
    "Latitude": 48.3044494,
    "Longitude": 18.0631485
  },
  {
    "Title": "Kellys Bike Centrum",
    "Address": "Mikovíniho 398, 949 11 Nitra, Slovakia",
    "Mesto": "Nitra",
    "Kraj": "NR",
    "Website": "https://nitra.kellysbike.com/",
    "Phone": "+421 918 499 098",
    "Detail_URL": "https://www.google.com/maps/place/Kellys+Bike+Centrum/data=!4m5!3m4!1s0x476b3efd158b12f9:0x4c315162d10ef346!8m2!3d48.3037464!4d18.062915?authuser=0&hl=en&gl=us&rclk=1",
    "Latitude": 48.3037464,
    "Longitude": 18.062915
  },
  {
    "Title": "DOLOMITYBIKE",
    "Address": "Štefánikova trieda 37/65, 949 01 Nitra, Slovakia",
    "Mesto": "Nitra",
    "Kraj": "NR",
    "Website": "http://www.dolomitybike.sk/",
    "Phone": "+421 37/381 15 84",
    "Detail_URL": "https://www.google.com/maps/place/DOLOMITYBIKE/data=!4m5!3m4!1s0x476b3ee17dab9caf:0x2b468c6979f641b2!8m2!3d48.3058337!4d18.0853502?authuser=0&hl=en&gl=us&rclk=1",
    "Latitude": 48.3058337,
    "Longitude": 18.0853502
  },
  {
    "Title": "Polhorský hrádok",
    "Address": "Polhorský hrádok, 029 47 Oravská Polhora",
    "Mesto": "Oravská Polhora",
    "Kraj": "ZA",
    "Website": "http://skioravskapolhora.sk",
    "Phone": "",
    "Detail_URL": "https://www.google.com/maps/place/Ski+centrum+Oravsk%C3%A1+Polhora/@49.5220341,19.4337202,17z/data=!3m1!4b1!4m5!3m4!1s0x4715cdf34564118f:0xb776cb1e87f9d7f9!8m2!3d49.5220306!4d19.4359089",
    "Latitude": 49.5220341,
    "Longitude": 19.4337202
  },
  {
    "Title": "Wintersport,POŽIČOVŇA/PREDAJ/ELEKTROBICYKLOV/E-BIKE RENT,Oščadnica",
    "Address": "Oščadnica 395, 023 01 Oščadnica, Slovakia",
    "Mesto": "Oščadnica",
    "Kraj": "ZA",
    "Website": "http://www.wintersport.sk/",
    "Phone": "+421 910 392 478",
    "Detail_URL": "https://www.google.com/maps/place/Wintersport,POŽIČOVŇA/PREDAJ/ELEKTROBICYKLOV/E-BIKE+RENT,Oščadnica/data=!4m5!3m4!1s0x471440af3c81bf11:0xbe55714f9ba40f44!8m2!3d49.4453806!4d18.89726?authuser=0&hl=en&gl=us&rclk=1",
    "Latitude": 49.4453806,
    "Longitude": 18.89726
  },
  {
    "Title": "SNOWPARADISE a.s.",
    "Address": "Dedovka 40, 023 01 Oščadnica",
    "Mesto": "Oščadnica",
    "Kraj": "ZA",
    "Website": "http://www.snowparadise.sk",
    "Phone": "0911 243 601",
    "Detail_URL": "https://www.google.com/maps/place/SNOWPARADISE+a.s./@49.4151245,18.9183453,17z/data=!3m1!4b1!4m5!3m4!1s0x47144722a0cd77ff:0x9f784ef390178455!8m2!3d49.415121!4d18.920534",
    "Latitude": 49.4151245,
    "Longitude": 18.9183453
  },
  {
    "Title": "Procycling Ltd.",
    "Address": "Medveďovej 1572/1, 851 04 Petržalka, Slovakia",
    "Mesto": "Bratislava - Petržalka",
    "Kraj": "BA",
    "Website": "https://www.procycling.sk/",
    "Phone": "+421 917 344 484",
    "Detail_URL": "https://www.google.com/maps/place/Procycling+Ltd./data=!4m5!3m4!1s0x476c890b788bd08d:0x3c009b84fa4a5dac!8m2!3d48.1231497!4d17.1319971?authuser=0&hl=en&gl=us&rclk=1",
    "Latitude": 48.1231497,
    "Longitude": 17.1319971
  },
  {
    "Title": "Pro Cycling Rental",
    "Address": "Medveďovej 1/A, 851 01 Petržalka, Slovakia",
    "Mesto": "Bratislava - Petržalka",
    "Kraj": "BA",
    "Website": "https://procyclingrental.com/contacts/",
    "Phone": "+421 917 344 484",
    "Detail_URL": "https://www.google.com/maps/place/Pro+Cycling+Rental/data=!4m5!3m4!1s0x476c8903f2bffe2b:0x2edbb4d1f152430c!8m2!3d48.1233297!4d17.1321094?authuser=0&hl=en&gl=us&rclk=1",
    "Latitude": 48.1233297,
    "Longitude": 17.1321094
  },
  {
    "Title": "AlterBike",
    "Address": "Moyzesova 1, 902 01 Pezinok, Slovakia",
    "Mesto": "Pezinok",
    "Kraj": "BA",
    "Website": "http://www.alterbike.sk/",
    "Phone": "+421 910 909 716",
    "Detail_URL": "https://www.google.com/maps/place/AlterBike/data=!4m5!3m4!1s0x476c90b929dde4e1:0x215dd642fc634831!8m2!3d48.2853052!4d17.2724529?authuser=0&hl=en&gl=us&rclk=1",
    "Latitude": 48.2853052,
    "Longitude": 17.2724529
  },
  {
    "Title": "Požičovňa e-bike Štrbské pleso",
    "Address": "059 85, Vysoké Tatry-Štrbské Pleso, Slovakia",
    "Mesto": "Vysoké Tatry - Štrbské Pleso",
    "Kraj": "PO",
    "Website": "https://abl.sk/leto/",
    "Phone": "+421 911 576 667",
    "Detail_URL": "https://www.google.com/maps/place/Požičovňa+e-bike+Štrbské+pleso/data=!4m5!3m4!1s0x4715891317aca273:0x919e33abc58f414c!8m2!3d49.1279576!4d20.0604259?authuser=0&hl=en&gl=us&rclk=1",
    "Latitude": 49.1279576,
    "Longitude": 20.0604259
  },
  {
    "Title": "Športservis",
    "Address": "Trojičné námestie 3, 821 06 Podunajské Biskupice, Slovakia",
    "Mesto": "Podunajské Biskupice",
    "Kraj": "BA",
    "Website": "http://www.sportservis.sk/",
    "Phone": "+421 2/402 016 02",
    "Detail_URL": "https://www.google.com/maps/place/Športservis/data=!4m5!3m4!1s0x476c86187603bfbd:0x9b16e058b4f3839f!8m2!3d48.1255803!4d17.2107241?authuser=0&hl=en&gl=us&rclk=1",
    "Latitude": 48.1255803,
    "Longitude": 17.2107241
  },
  {
    "Title": "Športrysy",
    "Address": "OC Storeland, Teplická cesta 5, Poprad",
    "Mesto": "Poprad",
    "Kraj": "PO",
    "Website": "http://www.sportrysy.sk",
    "Phone": "052/789 40 49",
    "Detail_URL": "https://www.google.com/maps/place/Sportrysy+Poprad+OC+Storeland/@49.0560406,20.2644162,16z/data=!4m13!1m6!3m5!1s0x473e3ab13edf64d9:0x1f3136947f44e0a6!2sSportrysy+Poprad+OC+Storeland!8m2!3d49.0560578!4d20.2731604!3m5!1s0x473e3ab13edf64d9:0x1f3136947f44e0a6!8m2!3d49.0560578!4d20.2731604!15sCglzcG9ydHJ5c3kiA4gBAVoLIglzcG9ydHJ5c3mSARRzcG9ydGluZ19nb29kc19zdG9yZQ",
    "Latitude": 49.0560406,
    "Longitude": 20.2644162
  },
  {
    "Title": "Ebike-požičovňa",
    "Address": "Allendeho 34, 059 51 Poprad-Matejovce, Slovakia",
    "Mesto": "Poprad-Matejovce",
    "Kraj": "PO",
    "Website": "https://www.ebike-pozicovna.sk/",
    "Phone": "+421 951 772 822",
    "Detail_URL": "https://www.google.com/maps/place/Ebike-požičovňa/data=!4m5!3m4!1s0x473e3bce21dbc07f:0xbee92771131f5542!8m2!3d49.0798223!4d20.3215665?authuser=0&hl=en&gl=us&rclk=1",
    "Latitude": 49.0798223,
    "Longitude": 20.3215665
  },
  {
    "Title": "star Bike",
    "Address": "Hlavná 2906, 080 01 Prešov, Slovakia",
    "Mesto": "Prešov",
    "Kraj": "PO",
    "Website": "https://starbike.sk/",
    "Phone": "+421 948 455 458",
    "Detail_URL": "https://www.google.com/maps/place/star+Bike/data=!4m5!3m4!1s0x473eed62d04d5b1b:0xa3f9bd6ef5179cc2!8m2!3d48.9971803!4d21.2400587?authuser=0&hl=en&gl=us&rclk=1",
    "Latitude": 48.9971803,
    "Longitude": 21.2400587
  },
  {
    "Title": "BAJKUJ - Bicykle PREDAJ - SERVIS",
    "Address": "Švábska 27, 080 05 Prešov-Solivar, Slovakia",
    "Mesto": "Prešov-Solivar",
    "Kraj": "PO",
    "Website": "http://www.bajkuj.sk/",
    "Phone": "+421 904 515 030",
    "Detail_URL": "https://www.google.com/maps/place/BAJKUJ+-+Bicykle+PREDAJ+-+SERVIS/data=!4m5!3m4!1s0x473eeda4527a4543:0xf04b6d985469a7da!8m2!3d48.9744645!4d21.2626887?authuser=0&hl=en&gl=us&rclk=1",
    "Latitude": 48.9744645,
    "Longitude": 21.2626887
  },
  {
    "Title": "BAJKUJ",
    "Address": "Švábska, 080 05 Prešov-Solivar, Slovakia",
    "Mesto": "Prešov-Solivar",
    "Kraj": "PO",
    "Website": "http://www.bajkuj.sk/index.php/cykloskola/",
    "Phone": "+421 904 515 030",
    "Detail_URL": "https://www.google.com/maps/place/BAJKUJ/data=!4m5!3m4!1s0x473eeda4527a4543:0x90458cfd441061f2!8m2!3d48.9729009!4d21.2603874?authuser=0&hl=en&gl=us&rclk=1",
    "Latitude": 48.9729009,
    "Longitude": 21.2603874
  },
  {
    "Title": "SOLIVARIA s.r.o.",
    "Address": "Lesnícka 1303, 080 05 Prešov-Solivar",
    "Mesto": "Prešov-Solivar",
    "Kraj": "PO",
    "Website": "http://solivaria.sk",
    "Phone": "0915 945 341",
    "Detail_URL": "https://www.google.com/maps/place/SOLIVARIA+s.r.o./@48.9807204,21.2692167,17z/data=!3m1!4b1!4m5!3m4!1s0x473eede562c25dd9:0x9ba20b6efa1cdaa8!8m2!3d48.9807393!4d21.271363",
    "Latitude": 48.9807204,
    "Longitude": 21.2692167
  },
  {
    "Title": "PLAZA BEACH RESORT",
    "Address": "Kutuzovova 4, 080 05 Prešov-Solivar",
    "Mesto": "Prešov-Solivar",
    "Kraj": "PO",
    "Website": "http://plazabeach.sk",
    "Phone": "051/775 11 27",
    "Detail_URL": "https://www.google.com/maps/place/PLAZA+BEACH+RESORT/@48.9815817,21.2700479,17z/data=!3m1!4b1!4m5!3m4!1s0x473eed0874a9b74f:0xaa96181ea0a5900b!8m2!3d48.9813895!4d21.2718642",
    "Latitude": 48.9815817,
    "Longitude": 21.2700479
  },
  {
    "Title": "eBIKE požičovňa Podbanské",
    "Address": "Grand hotel Permon 032 42, 1486 Pribylina, Slovakia",
    "Mesto": "Pribylina",
    "Kraj": "ZA",
    "Website": "http://www.bicyklomposlovensku.sk/pozicovna",
    "Phone": "+421 915 538 046",
    "Detail_URL": "https://www.google.com/maps/place/eBIKE+požičovňa+Podbanské/data=!4m5!3m4!1s0x47158f7eea8b3ae5:0x26b2fc16ed24513!8m2!3d49.1469218!4d19.9073885?authuser=0&hl=en&gl=us&rclk=1",
    "Latitude": 49.1469218,
    "Longitude": 19.9073885
  },
  {
    "Title": "Bikeroom",
    "Address": "Necpalská cesta 34/A, 971 01 Prievidza, Slovakia",
    "Mesto": "Prievidza",
    "Kraj": "TN",
    "Website": "http://www.bikeroom.sk/",
    "Phone": "+421 948 184 765",
    "Detail_URL": "https://www.google.com/maps/place/Bikeroom/data=!4m5!3m4!1s0x4714dddf47e2a863:0xa95fe79832b63562!8m2!3d48.7790839!4d18.6277173?authuser=0&hl=en&gl=us&rclk=1",
    "Latitude": 48.7790839,
    "Longitude": 18.6277173
  },
  {
    "Title": "Pivovar FLÁMM",
    "Address": "Lesná 1, 013 13 Rajecké Teplice, Slovakia",
    "Mesto": "Rajecké Teplice",
    "Kraj": "ZA",
    "Website": "http://flamm.sk/",
    "Phone": "+421 918 010 023",
    "Detail_URL": "https://www.google.com/maps/place/Pivovar+FLÁMM/data=!4m5!3m4!1s0x4714f5b67ddb6b6f:0x595536acdc67fb7a!8m2!3d49.1268658!4d18.6812255?authuser=0&hl=en&gl=us&rclk=1",
    "Latitude": 49.1268658,
    "Longitude": 18.6812255
  },
  {
    "Title": "E-bike Žilina",
    "Address": "Rosina 557, 013 22 Rosina, Slovakia",
    "Mesto": "Rosina",
    "Kraj": "ZA",
    "Website": "http://www.e-bikezilina.sk/",
    "Phone": "+421 944 641 232",
    "Detail_URL": "https://www.google.com/maps/place/E-bike+Žilina/data=!4m5!3m4!1s0x47145950caf10d6f:0x658dffe397bcaa55!8m2!3d49.1716772!4d18.7708577?authuser=0&hl=en&gl=us&rclk=1",
    "Latitude": 49.1716772,
    "Longitude": 18.7708577
  },
  {
    "Title": "eBIKEpoint",
    "Address": "Hollého 13, 034 01 Ružomberok, Slovakia",
    "Mesto": "Ružomberok",
    "Kraj": "ZA",
    "Website": "https://www.ebikepoint.sk/",
    "Phone": "+421 918 215 522",
    "Detail_URL": "https://www.google.com/maps/place/eBIKEpoint/data=!4m5!3m4!1s0x4715a703255094c5:0xcec8bca74ca52005!8m2!3d49.0653086!4d19.3010317?authuser=0&hl=en&gl=us&rclk=1",
    "Latitude": 49.0653086,
    "Longitude": 19.3010317
  },
  {
    "Title": "R_BK | RUZOMBEROK.BIKE Cycling Centre - Rental",
    "Address": "Čremošná, 034 06 Ružomberok, Slovakia",
    "Mesto": "Ružomberok",
    "Kraj": "ZA",
    "Website": "http://www.ruzomberok.bike/",
    "Phone": "+421 907 326 242",
    "Detail_URL": "https://www.google.com/maps/place/R_BK+|+RUZOMBEROK.BIKE+Cycling+Centre+-+Rental/data=!4m5!3m4!1s0x4715a9f11848cda1:0xba28c3afc429a628!8m2!3d49.0803862!4d19.25538?authuser=0&hl=en&gl=us&rclk=1",
    "Latitude": 49.0803862,
    "Longitude": 19.25538
  },
  {
    "Title": "Malino Brdo ski & bike park",
    "Address": "Hrabovská cesta 1679/31, 034 01 Ružomberok, Slovakia",
    "Mesto": "Ružomberok",
    "Kraj": "ZA",
    "Website": "http://www.skipark.sk/",
    "Phone": "+421 918 640 640",
    "Detail_URL": "https://www.google.com/maps/place/Malino+Brdo+ski+&+bike+park/data=!4m5!3m4!1s0x4715a7e045984279:0xc20689649cb83af1!8m2!3d49.069765!4d19.272425?authuser=0&hl=en&gl=us&rclk=1",
    "Latitude": 49.069765,
    "Longitude": 19.272425
  },
  {
    "Title": "Mountainbiking - Bike Rental&Guiding",
    "Address": "Beliansky, 059 01 rybník, Slovakia",
    "Mesto": "rybník",
    "Kraj": "NR",
    "Website": "http://www.mountainbiking.sk/",
    "Phone": "+421 903 775 989",
    "Detail_URL": "https://www.google.com/maps/place/Mountainbiking+-+Bike+Rental&Guiding/data=!4m5!3m4!1s0x473e17614f43d3f7:0x270c84fd40b77704!8m2!3d49.1959047!4d20.4376334?authuser=0&hl=en&gl=us&rclk=1",
    "Latitude": 49.1959047,
    "Longitude": 20.4376334
  },
  {
    "Title": "ENERGY BIKES - Senica",
    "Address": "Hviezdoslavova 473, 905 01 Senica, Slovakia",
    "Mesto": "Senica",
    "Kraj": "TT",
    "Website": "https://energybikes.sk/",
    "Phone": "+421 918 893 566",
    "Detail_URL": "https://www.google.com/maps/place/ENERGY+BIKES+-+Senica/data=!4m5!3m4!1s0x476cb5fee7d2b909:0xbfcbef2f87028228!8m2!3d48.6795583!4d17.359572?authuser=0&hl=en&gl=us&rclk=1",
    "Latitude": 48.6795583,
    "Longitude": 17.359572
  },
  {
    "Title": "Horská chata Hertl sport",
    "Address": "Bike Aréna, Zlatnícka dolina 7009, 909 01 Skalica-Zlatnícka dolina, Slovakia",
    "Mesto": "Skalica-Zlatnícka dolina",
    "Kraj": "TT",
    "Website": "https://www.chatahertlsport.eu/",
    "Phone": "+421 907 337 787",
    "Detail_URL": "https://www.google.com/maps/place/Horská+chata+Hertl+sport/data=!4m5!3m4!1s0x4713374feec455c5:0xf3398870d0dfa447!8m2!3d48.8248624!4d17.2994259?authuser=0&hl=en&gl=us&rclk=1",
    "Latitude": 48.8248624,
    "Longitude": 17.2994259
  },
  {
    "Title": "Pozicovna bicyklov",
    "Address": "031 01 Liptovský Trnovec, Slovakia",
    "Mesto": "Liptovský Trnovec",
    "Kraj": "ZA",
    "Website": "http://www.skiservis.sk/",
    "Phone": null,
    "Detail_URL": "https://www.google.com/maps/place/Pozicovna+bicyklov/data=!4m5!3m4!1s0x4715a308796a3681:0x3a9857b7f7561fb5!8m2!3d49.1114711!4d19.5460671?authuser=0&hl=en&gl=us&rclk=1",
    "Latitude": 49.1114711,
    "Longitude": 19.5460671
  },
  {
    "Title": "Gula bikes - požičovna ebikov",
    "Address": "Námestie SNP 17, 976 13 Slovenská Ľupča, Slovakia",
    "Mesto": "Slovenská Ľupča",
    "Kraj": "BB",
    "Website": "http://www.pozicovna.bike/",
    "Phone": "+421 905 794 274",
    "Detail_URL": "https://www.google.com/maps/place/Gula+bikes+-+požičovna+ebikov/data=!4m5!3m4!1s0x471515bd7572f15b:0x2e64c0eb09d90ca4!8m2!3d48.7669415!4d19.2744538?authuser=0&hl=en&gl=us&rclk=1",
    "Latitude": 48.7669415,
    "Longitude": 19.2744538
  },
  {
    "Title": "MTM prenájom e-bikov",
    "Address": "Mlynská 15, 053 11 Smižany, Slovakia",
    "Mesto": "Smižany",
    "Kraj": "KE",
    "Website": "http://www.mtmebike.com/",
    "Phone": "+421 911 284 060",
    "Detail_URL": "https://www.google.com/maps/place/MTM+prenájom+e-bikov/data=!4m5!3m4!1s0x473e49b27248e087:0x39871fba5e9958d1!8m2!3d48.9527433!4d20.5295759?authuser=0&hl=en&gl=us&rclk=1",
    "Latitude": 48.9527433,
    "Longitude": 20.5295759
  },
  {
    "Title": "Požičovňa ebajkov a bicyklov - poloniny.bike",
    "Address": "Rybnická 3951, 069 01 Snina, Slovakia",
    "Mesto": "Snina",
    "Kraj": "PO",
    "Website": "https://poloniny.bike/",
    "Phone": "+421 910 480 350",
    "Detail_URL": "https://www.google.com/maps/place/Požičovňa+ebajkov+a+bicyklov+-+poloniny.bike/data=!4m5!3m4!1s0x47394f984932fef3:0x9847d21ff17379f0!8m2!3d48.974507!4d22.1881174?authuser=0&hl=en&gl=us&rclk=1",
    "Latitude": 48.974507,
    "Longitude": 22.1881174
  },
  {
    "Title": "LesEcycleS Point A",
    "Address": "Špania Dolina 99, 974 01 Špania Dolina, Slovakia",
    "Mesto": "Špania Dolina",
    "Kraj": "BB",
    "Website": "https://lesecycles.eu/",
    "Phone": "+421 911 993 646",
    "Detail_URL": "https://www.google.com/maps/place/LesEcycleS+Point+A/data=!4m5!3m4!1s0x47151705a4d95c11:0xaf3ac436a3d7d51d!8m2!3d48.8072003!4d19.1356278?authuser=0&hl=en&gl=us&rclk=1",
    "Latitude": 48.8072003,
    "Longitude": 19.1356278
  },
  {
    "Title": "BICYKLE SCHWABIK - predaj, servis a požičovňa bicyklov",
    "Address": "Zimná 171/36, 052 01 Spišská Nová Ves",
    "Mesto": "Spišská Nová Ves",
    "Kraj": "PO",
    "Website": "http://www.bicykle.schwabik.sk",
    "Phone": "0904 658 339",
    "Detail_URL": "https://www.google.com/maps/place/BICYKLE+SCHWABIK+-+predaj,+servis+a+po%C5%BEi%C4%8Dov%C5%88a+bicyklov/@48.944622,20.5620915,17z/data=!3m1!4b1!4m5!3m4!1s0x473e4ed592629feb:0xdfded426eff87152!8m2!3d48.9446185!4d20.5642801",
    "Latitude": 48.944622,
    "Longitude": 20.5620915
  },
  {
    "Title": "Ebiky pod Kráľovou hoľou",
    "Address": "Kráľovohoľská cesta 405, 976 71 Šumiac, Slovakia",
    "Mesto": "Šumiac",
    "Kraj": "BB",
    "Website": "http://www.ebikypodkralovouholou.sk/",
    "Phone": "+421 911 994 594",
    "Detail_URL": "https://www.google.com/maps/place/Ebiky+pod+Kráľovou+hoľou/data=!4m5!3m4!1s0x473fcd4c02833c89:0xab17172d7fad29c7!8m2!3d48.8413428!4d20.1295951?authuser=0&hl=en&gl=us&rclk=1",
    "Latitude": 48.8413428,
    "Longitude": 20.1295951
  },
  {
    "Title": "Požičovňa EbikeBB",
    "Address": "976 34, Tajov, Slovakia",
    "Mesto": "Tajov",
    "Kraj": "BB",
    "Website": "http://www.ebikebb.sk/",
    "Phone": "+421 944 535 323",
    "Detail_URL": "https://www.google.com/maps/place/Požičovňa+EbikeBB/data=!4m5!3m4!1s0x47153d3e4e896cad:0x11af4613107123d0!8m2!3d48.7451313!4d19.0752713?authuser=0&hl=en&gl=us&rclk=1",
    "Latitude": 48.7451313,
    "Longitude": 19.0752713
  },
  {
    "Title": "E-biky Telgárt",
    "Address": "Telgárt 480, 976 73 Telgárt, Slovakia",
    "Mesto": "Telgárt",
    "Kraj": "BB",
    "Website": "http://www.ebikytelgart.sk/",
    "Phone": "+421 907 914 294",
    "Detail_URL": "https://www.google.com/maps/place/E-biky+Telgárt/data=!4m5!3m4!1s0x473fcd78744bc0ad:0x78741339d11e2770!8m2!3d48.8494825!4d20.2041209?authuser=0&hl=en&gl=us&rclk=1",
    "Latitude": 48.8494825,
    "Longitude": 20.2041209
  },
  {
    "Title": "MUCHA APARTMENTS",
    "Address": "Vrátňanská cesta 488, 013 06 Terchová, Slovakia",
    "Mesto": "Terchová",
    "Kraj": "ZA",
    "Website": "http://www.mucha-apartments.sk/",
    "Phone": "+421 907 702 007",
    "Detail_URL": "https://www.google.com/maps/place/MUCHA+APARTMENTS/data=!4m5!3m4!1s0x47145206bac4e809:0x70034d9e86d1e96!8m2!3d49.2528775!4d19.0369121?authuser=0&hl=en&gl=us&rclk=1",
    "Latitude": 49.2528775,
    "Longitude": 19.0369121
  },
  {
    "Title": "eMPe Sport",
    "Address": "Pribinova 4727, 955 01 Topoľčany, Slovakia",
    "Mesto": "Topoľčany",
    "Kraj": "NR",
    "Website": "http://www.empesport.sk/",
    "Phone": "+421 38/768 23 48",
    "Detail_URL": "https://www.google.com/maps/place/eMPe+Sport/data=!4m5!3m4!1s0x476b4aaf77bd2839:0x577e5fe3f54fdd5!8m2!3d48.55937!4d18.176896?authuser=0&hl=en&gl=us&rclk=1",
    "Latitude": 48.55937,
    "Longitude": 18.176896
  },
  {
    "Title": "Motorest Farmárik - eBike požičovna",
    "Address": "Odbojárov, 955 01 Topoľčany, Slovakia",
    "Mesto": "Topoľčany",
    "Kraj": "NR",
    "Website": "http://www.farmarik.eu/",
    "Phone": "+421 903 216 981",
    "Detail_URL": "https://www.google.com/maps/place/Motorest+Farmárik+-+eBike+požičovna/data=!4m5!3m4!1s0x476b4b96c3d7f42f:0xfd147028eaa263d9!8m2!3d48.5580763!4d18.133025?authuser=0&hl=en&gl=us&rclk=1",
    "Latitude": 48.5580763,
    "Longitude": 18.133025
  },
  {
    "Title": "HOUSE OF BIKE - CTM - MONDRAKER",
    "Address": "Mierové námestie 33, 911 01 Trenčín, Slovakia",
    "Mesto": "Trenčín",
    "Kraj": "TN",
    "Website": "http://www.houseofbike.sk/",
    "Phone": "+421 903 780 301",
    "Detail_URL": "https://www.google.com/maps/place/HOUSE+OF+BIKE+-+CTM+-+MONDRAKER/data=!4m5!3m4!1s0x4714a1896cb21379:0xd7f8c32a810eecc0!8m2!3d48.8956!4d18.0430667?authuser=0&hl=en&gl=us&rclk=1",
    "Latitude": 48.8956,
    "Longitude": 18.0430667
  },
  {
    "Title": "SikiBike",
    "Address": "Veľkomoravská 2162/16, 911 05 Trenčín-Zlatovce, Slovakia",
    "Mesto": "Trenčín-Zlatovce",
    "Kraj": "TN",
    "Website": "http://www.sikibike.sk/",
    "Phone": "+421 917 960 522",
    "Detail_URL": "https://www.google.com/maps/place/SikiBike+predaj+retro+elektrických+bicyklov+www.sikibike.sk/data=!4m5!3m4!1s0x4714a17ad660bff5:0x874dfa503a64e28c!8m2!3d48.8954803!4d18.0262792?authuser=0&hl=en&gl=us&rclk=1",
    "Latitude": 48.8954803,
    "Longitude": 18.0262792
  },
  {
    "Title": "NAJŠPORT Trenčín (bicykle, elektrobicykle, cyklodoplnky, oblečenie a servis)",
    "Address": "Zlatovská 20, 911 05 Trenčín-Zlatovce, Slovakia",
    "Mesto": "Trenčín-Zlatovce",
    "Kraj": "TN",
    "Website": "http://www.najsport.sk/",
    "Phone": "+421 908 697 525",
    "Detail_URL": "https://www.google.com/maps/place/NAJŠPORT+Trenčín+(bicykle,+elektrobicykle,+cyklodoplnky,+oblečenie+a+servis)/data=!4m5!3m4!1s0x4714a1879dde3e1d:0x7db81b0fabbf03bf!8m2!3d48.8971245!4d18.0267813?authuser=0&hl=en&gl=us&rclk=1",
    "Latitude": 48.8971245,
    "Longitude": 18.0267813
  },
  {
    "Title": "Mobility Cyklocentrum",
    "Address": "Bratislavská 7482/80, 917 02 Trnava, Slovakia",
    "Mesto": "Trnava",
    "Kraj": "TT",
    "Website": "http://www.mobilitytrnava.sk/",
    "Phone": "+421 948 909 808",
    "Detail_URL": "https://www.google.com/maps/place/Mobility+Cyklocentrum/data=!4m5!3m4!1s0x476ca1db2eaad477:0xffac7f1d475d4c31!8m2!3d48.3550318!4d17.5756193?authuser=0&hl=en&gl=us&rclk=1",
    "Latitude": 48.3550318,
    "Longitude": 17.5756193
  },
  {
    "Title": "H-BIKE",
    "Address": "Námestie sv. Floriána 347, 013 03 Varín",
    "Mesto": "Varín",
    "Kraj": "ZA",
    "Website": "http://h-bike.sk",
    "Phone": "0910 410 977",
    "Detail_URL": "https://www.google.com/maps/place/H-BIKE/@49.1999213,18.8670471,17z/data=!3m1!4b1!4m5!3m4!1s0x4714575434262fdb:0x66d1d4f96efe59f!8m2!3d49.1999178!4d18.8692358",
    "Latitude": 49.1999213,
    "Longitude": 18.8670471
  },
  {
    "Title": "Epohon.sk- Elektrobicykle",
    "Address": "Popradská 502/25, 059 52 Veľká Lomnica, Slovakia",
    "Mesto": "Veľká Lomnica",
    "Kraj": "PO",
    "Website": "http://www.epohon.sk/",
    "Phone": "+421 944 994 527",
    "Detail_URL": "https://www.google.com/maps/place/Epohon.sk-+Elektrobicykle/data=!4m5!3m4!1s0x473e3c81a08f5849:0xaa4d823ccdd1590c!8m2!3d49.1116609!4d20.3618969?authuser=0&hl=en&gl=us&rclk=1",
    "Latitude": 49.1116609,
    "Longitude": 20.3618969
  },
  {
    "Title": "E-BIKY LAJOŠKA",
    "Address": "Vyšný Klátov 114, 044 12 Vyšný Klátov",
    "Mesto": "Vyšný Klátov",
    "Kraj": "KE",
    "Website": "http://ebikylajoska.sk/",
    "Phone": "0904654001",
    "Detail_URL": "https://www.google.com/maps/place/E-BIKY+LAJO%C5%A0KA/@48.7448558,21.1217686,17z/data=!3m1!4b1!4m5!3m4!1s0x473ee37da34cdf39:0x4f309b008e316e79!8m2!3d48.7448601!4d21.1239536",
    "Latitude": 48.7448558,
    "Longitude": 21.1217686
  },
  {
    "Title": "SPORTCENTRUM GALFY s.r.o.",
    "Address": "Horný Smokovec 51, Vysoké Tatry, 062 01 Horný Smokovec",
    "Mesto": "Vysoké Tatry - Horný Smokovec",
    "Kraj": "PO",
    "Website": "http://galfy.sk",
    "Phone": "",
    "Detail_URL": "https://www.google.com/maps/place/SPORTCENTRUM+GALFY+s.r.o./@49.1395192,20.2310839,17z/data=!3m1!4b1!4m5!3m4!1s0x473e238cf3d8487b:0x68fc6a1dc965cf99!8m2!3d49.1395157!4d20.2332726",
    "Latitude": 49.1395192,
    "Longitude": 20.2310839
  },
  {
    "Title": "INTERSPORT RENT Galfy Starý Smokovec",
    "Address": "Starý Smokovec 19100 Hrebienok Resort II, 062 01 Vysoké Tatry",
    "Mesto": "Vysoké Tatry - Starý Smokovec",
    "Kraj": "PO",
    "Website": "http://galfy.sk",
    "Phone": "",
    "Detail_URL": "https://www.google.com/maps/place/INTERSPORT+RENT+Galfy+Star%C3%BD+Smokovec/@49.1404618,20.2151233,17z/data=!3m1!4b1!4m5!3m4!1s0x473e23f46fd908a1:0xee5f3a7a7d49e817!8m2!3d49.1404584!4d20.219608",
    "Latitude": 49.1404618,
    "Longitude": 20.2151233
  },
  {
    "Title": "Progres Tatry - Ski school, rent & SHOP",
    "Address": "Tatranská Lomnica 269, 062 01 Vysoké Tatry",
    "Mesto": "Vysoké Tatry - Tatranská Lomnica",
    "Kraj": "PO",
    "Website": "http://progrestatry.sk",
    "Phone": "",
    "Detail_URL": "https://www.google.com/maps/place/Progres+Tatry+-+Ski+school,+rent+&+SHOP/@49.166432,20.2655883,17z/data=!4m5!3m4!1s0x473e23ace1839049:0x95c71fc0156a2f4c!8m2!3d49.1664301!4d20.2700876",
    "Latitude": 49.166432,
    "Longitude": 20.2655883
  },
  {
    "Title": "Areál bežeckého lyžovania SNOW Štrbské Pleso",
    "Address": "K Vodopádom, 059 85 Vysoké Tatry-Štrbské Pleso",
    "Mesto": "Vysoké Tatry - Štrbské Pleso",
    "Kraj": "PO",
    "Website": "http://abl.sk",
    "Phone": "",
    "Detail_URL": "https://www.google.com/maps/place/Are%C3%A1l+be%C5%BEeck%C3%A9ho+ly%C5%BEovania+SNOW+%C5%A0trbsk%C3%A9+Pleso/@49.1279684,20.0582135,17z/data=!3m1!4b1!4m5!3m4!1s0x471589d66582d24d:0x240ef89cecbfd7b4!8m2!3d49.1279649!4d20.0604022",
    "Latitude": 49.1279684,
    "Longitude": 20.0582135
  },
  {
    "Title": "Hotel Panorama Resort",
    "Address": "Štrbské Pleso 4020, 059 85 Vysoké Tatry-Štrbské Pleso",
    "Mesto": "Vysoké Tatry - Štrbské Pleso",
    "Kraj": "PO",
    "Website": "http://www.hotelpanorama.sk",
    "Phone": "0908 888 223",
    "Detail_URL": "https://www.google.com/maps/place/Hotel+Panorama/@49.1179674,20.0566063,17z/data=!3m1!4b1!4m8!3m7!1s0x473e2780f761c9b1:0xa4cc84a7e9567bf4!5m2!4m1!1i2!8m2!3d49.1179078!4d20.0611623",
    "Latitude": 49.1179674,
    "Longitude": 20.0566063
  },
  {
    "Title": "E-bike Strachan",
    "Address": "Ždiar 530, 059 55 Ždiar, Slovakia",
    "Mesto": "Ždiar",
    "Kraj": "PO",
    "Website": "https://ebikestrachan.sk/",
    "Phone": "+421 917 357 814",
    "Detail_URL": "https://www.google.com/maps/place/E-bike+Strachan/data=!4m5!3m4!1s0x473e1fea52c39a33:0x462bf2f61f85caa4!8m2!3d49.2763862!4d20.2348682?authuser=0&hl=en&gl=us&rclk=1",
    "Latitude": 49.2763862,
    "Longitude": 20.2348682
  },
  {
    "Title": "E-BIKE RENT Ždiar",
    "Address": "Ždiar 392, 059 55 Ždiar, Slovakia",
    "Mesto": "Ždiar",
    "Kraj": "PO",
    "Website": "http://ebike-zdiar.sk/",
    "Phone": "+421 902 090 442",
    "Detail_URL": "https://www.google.com/maps/place/E-BIKE+RENT+Ždiar/data=!4m5!3m4!1s0x473e1fcc0015a7e5:0xa92a85b2b6cdb646!8m2!3d49.2746264!4d20.2481562?authuser=0&hl=en&gl=us&rclk=1",
    "Latitude": 49.2746264,
    "Longitude": 20.2481562
  },
  {
    "Title": "BACHLEDKA Ski & Sun",
    "Address": "Bachledova dolina 702, 059 55 Ždiar, Slovakia",
    "Mesto": "Ždiar",
    "Kraj": "PO",
    "Website": "http://bachledka.sk/",
    "Phone": "+421 911 977 455",
    "Detail_URL": "https://www.google.com/maps/place/BACHLEDKA+Ski+&+Sun/data=!4m5!3m4!1s0x473e194f2bc22463:0x468bf0bd168e1377!8m2!3d49.2720045!4d20.3099199?authuser=0&hl=en&gl=us&rclk=1",
    "Latitude": 49.2720045,
    "Longitude": 20.3099199
  },
  {
    "Title": "TopSki sport s.r.o",
    "Address": "Dlhá 1103/61, 010 09 Žilina - Bytčica, Slovakia",
    "Mesto": "Žilina - Bytčica",
    "Kraj": "ZA",
    "Website": "http://www.topski.sk/",
    "Phone": "+421 909 102 588",
    "Detail_URL": "https://www.google.com/maps/place/TopSki+sport+s.r.o/data=!4m5!3m4!1s0x47145ed3572f89bf:0xf29baf18294564f9!8m2!3d49.1902125!4d18.7339421?authuser=0&hl=en&gl=us&rclk=1",
    "Latitude": 49.1902125,
    "Longitude": 18.7339421
  },
  {
    "Title": "Cyklo Bej - Bebej Peter",
    "Address": "Radová 315, 027 32 Zuberec, Slovakia",
    "Mesto": "Zuberec",
    "Kraj": "ZA",
    "Website": "http://www.cyklopozicovna-rohace.sk/",
    "Phone": "+421 907 816 793",
    "Detail_URL": "https://www.google.com/maps/place/Cyklo+Bej+-+Bebej+Peter/data=!4m5!3m4!1s0x4715be6797d58b25:0x312694c80f12eb8b!8m2!3d49.2642495!4d19.6091704?authuser=0&hl=en&gl=us&rclk=1",
    "Latitude": 49.2642495,
    "Longitude": 19.6091704
  },
  {
    "Title": "ebajk Zvolen",
    "Address": "T. G. Masaryka 101, 960 01 Zvolen, Slovakia",
    "Mesto": "Zvolen",
    "Kraj": "BB",
    "Website": "http://www.ebajk.sk/",
    "Phone": "+421 911 771 107",
    "Detail_URL": "https://www.google.com/maps/place/ebajk+Zvolen/data=!4m5!3m4!1s0x471537857cc59037:0x197f8b79f73c7f2e!8m2!3d48.57345!4d19.1250876?authuser=0&hl=en&gl=us&rclk=1",
    "Latitude": 48.57345,
    "Longitude": 19.1250876
  },
  {
    "Title": "JUMP SPORT bikes - GHOST, KELLYS, sales and service, ski service",
    "Address": "Bauerova 1189/1, 040 23 Sídlisko KVP, Slovakia",
    "Mesto": "Košice",
    "Kraj": "KE",
    "Website": "https://www.jumpsport.sk/",
    "Phone": "+421 910 321 911",
    "Detail_URL": "https://www.google.com/maps/place/JUMP+SPORT+bikes+-+GHOST,+KELLYS,+sales+and+service,+ski+service/data=!4m5!3m4!1s0x473ee03437960199:0xf037d82bed1a78a6!8m2!3d48.7147871!4d21.2134955?authuser=0&hl=en&gl=us&rclk=1",
    "Latitude": 48.7147871,
    "Longitude": 21.2134955
  },
  {
    "Title": "KamBike",
    "Address": "",
    "Mesto": "Bratislava",
    "Kraj": "BA",
    "Website": "http://kambike.sk",
    "Phone": "0903 328 993",
    "Detail_URL": "https://www.google.com/maps/place/KamBike/@48.2074276,17.1989511,15z/data=!4m10!1m3!2m2!1sbicycle+rental+service!6e1!3m5!1s0x476c8f81db6be441:0xd48cf3166670cfb5!8m2!3d48.2074276!4d17.2167338!15sChZiaWN5Y2xlIHJlbnRhbCBzZXJ2aWNlkgEWYmljeWNsZV9yZW50YWxfc2VydmljZQ",
    "Latitude": 48.2074276,
    "Longitude": 17.2167338
  },
  {
    "Title": "BIKE-SMILE.sk požičovňa bicyklov a e-bicyklov",
    "Address": "031 01 Liptovský Mikuláš-Demänová",
    "Mesto": "Liptovský Mikuláš - Demänová",
    "Kraj": "ZA",
    "Website": "http://bike-smile.sk",
    "Phone": "0915 072 010",
    "Detail_URL": "https://www.google.com/maps/place/BIKE-SMILE.sk+po%C5%BEi%C4%8Dov%C5%88a+bicyklov+a+e-bicyklov/@49.0548174,19.5771875,17z/data=!3m1!4b1!4m5!3m4!1s0x47159f2a97a975ab:0x3e0e941160e144c1!8m2!3d49.0548139!4d19.5793762",
    "Latitude": 49.0548174,
    "Longitude": 19.5771875
  },
  {
    "Title": "Liptov Active, Ltd.",
    "Address": "",
    "Mesto": "Liptovský Mikuláš",
    "Kraj": "ZA",
    "Website": "http://www.liptovactive.sk",
    "Phone": "0911 294 734",
    "Detail_URL": "https://www.google.com/maps/place/Liptov+Active,+s.r.o./@49.1219736,18.578591,8z/data=!3m1!4b1!4m5!3m4!1s0x471508293cdfddfb:0x7015acaff8ca62ff!8m2!3d49.1256016!4d19.6995212",
    "Latitude": 49.1219736,
    "Longitude": 18.578591
  }
]